,City,Country,Latitude,Longitude,Temperature (F),Humidity (%),Cloudiness (%),Wind Speed (MPH)
0,Jamestown,US,42.1,-79.24,1.87,91,1,8.05
1,Mirny,RU,62.54,113.96,12.2,92,75,6.71
2,Busselton,AU,-33.65,115.33,77.47,35,0,21.3
3,Saint-Philippe,RE,-21.36,55.77,76.95,78,100,6.93
4,Vaini,TO,-21.2,-175.2,78.8,78,20,9.17
5,Dikson,RU,73.51,80.55,10.65,93,95,18.25
6,Beringovskiy,RU,63.05,179.32,2.07,81,100,20.0
7,Longyearbyen,SJ,78.22,15.64,6.8,71,75,11.41
8,Kaitangata,NZ,-46.28,169.85,59.0,93,100,5.01
9,Souillac,MU,-20.52,57.52,84.18,70,75,16.11
10,Mataura,NZ,-46.19,168.86,60.01,87,100,4.0
11,Sobolevo,RU,54.43,31.9,32.79,89,15,2.42
12,Taoudenni,ML,22.68,-3.98,76.1,17,100,15.28
13,Avallon,FR,47.48,3.9,44.1,81,63,4.21
14,Kapaa,US,22.08,-159.32,73.27,83,40,4.7
15,Mokshan,RU,53.44,44.61,35.01,56,100,7.72
16,Fairbanks,US,64.84,-147.72,-27.26,75,1,8.05
17,Port-Gentil,GA,-0.72,8.78,86.0,84,20,5.28
18,Avarua,CK,-21.21,-159.78,78.8,88,83,10.29
19,Tuktoyaktuk,CA,69.45,-133.04,-32.75,98,0,1.95
20,Ushuaia,AR,-54.8,-68.3,48.2,76,75,6.93
21,Isabela,PH,6.71,121.97,87.8,66,20,4.7
22,Portland,US,45.52,-122.68,41.63,87,90,4.7
23,Knysna,ZA,-34.04,23.05,69.8,88,75,4.7
24,Rome,US,43.21,-75.46,-3.87,69,1,5.48
25,Hong Kong,HK,22.29,114.16,71.38,83,40,13.87
26,Castro,BR,-24.79,-50.01,59.61,99,73,3.47
27,Rikitea,PF,-23.12,-134.97,79.3,77,0,14.43
28,Alofi,NU,-19.06,-169.92,77.0,83,100,11.41
29,Mahon,ES,39.89,4.27,57.2,87,75,5.82
30,Tabou,CI,4.42,-7.35,82.81,76,29,3.53
31,Punta Arenas,CL,-53.15,-70.92,48.09,87,90,13.87
32,Hermanus,ZA,-34.42,19.23,80.24,69,0,5.99
33,Uruguaiana,BR,-29.75,-57.09,73.4,94,90,4.7
34,Vostok,RU,46.49,135.88,-0.49,98,100,2.91
35,Minab,IR,27.15,57.08,73.4,53,0,6.93
36,Guerrero Negro,MX,27.98,-114.06,58.35,85,100,8.57
37,Mar del Plata,AR,-38.0,-57.56,63.25,100,19,11.41
38,Kidal,ML,18.44,1.41,78.85,7,34,18.14
39,Bakel,SN,14.9,-12.46,81.64,14,50,14.99
40,Hithadhoo,MV,-0.6,73.08,84.15,71,0,8.23
41,Oussouye,SN,12.48,-16.55,72.52,53,91,9.17
42,Fortuna,US,40.6,-124.16,37.13,93,1,5.82
43,Olinda,BR,-8.01,-34.86,82.4,65,20,6.93
44,Erzin,TR,36.96,36.2,52.3,22,100,24.16
45,Broken Hill,AU,-31.95,141.43,84.2,35,0,17.22
46,Tasiilaq,GL,65.61,-37.64,30.2,58,100,59.73
47,Port Alfred,ZA,-33.59,26.89,75.0,84,62,1.01
48,Cidreira,BR,-30.18,-50.21,75.72,78,100,5.46
49,Albany,US,42.6,-73.97,0.37,83,1,4.7
50,Olafsvik,IS,64.89,-23.71,32.65,75,45,13.38
51,Wajir,KE,1.75,40.06,93.2,34,20,11.41
52,Provideniya,RU,64.38,-173.3,-6.14,79,100,13.38
53,Baykit,RU,61.67,96.37,14.83,94,100,3.42
54,Bengkulu,ID,-3.8,102.27,79.65,92,100,5.14
55,Atuona,PF,-9.8,-139.03,81.01,75,96,14.72
56,Salalah,OM,17.02,54.09,80.6,15,0,18.34
57,Ribeira Grande,PT,38.52,-28.7,62.6,82,75,20.8
58,Keti Bandar,PK,24.14,67.45,80.15,36,0,12.88
59,Aleksandrov Gay,RU,50.15,48.57,24.35,88,55,5.28
60,Hobart,AU,-42.88,147.33,54.91,58,40,18.34
61,Shadegan,IR,30.65,48.66,64.38,51,67,9.17
62,Gawler,AU,-34.6,138.73,66.94,64,75,16.11
63,Puerto Ayora,EC,-0.74,-90.35,76.91,87,91,5.95
64,Cape Town,ZA,-33.93,18.42,77.16,53,0,12.75
65,Kapit,MY,2.02,112.93,80.92,95,97,3.38
66,Koslan,RU,63.46,48.9,19.98,95,92,6.26
67,Hilo,US,19.73,-155.09,67.15,83,90,4.7
68,Xining,CN,36.62,101.77,24.87,19,10,6.58
69,Paracuru,BR,-3.41,-39.03,76.86,88,75,2.24
70,Ndele,CF,8.41,20.65,93.07,11,0,6.44
71,Maningrida,AU,-12.07,134.27,85.3,82,25,21.45
72,Fandriana,MG,-20.23,47.38,60.66,98,100,9.22
73,La Ronge,CA,55.1,-105.28,-11.2,69,40,18.34
74,Arraial do Cabo,BR,-22.97,-42.03,75.16,81,43,7.23
75,Dhidhdhoo,MV,6.88,73.1,83.01,74,0,12.12
76,Villa Carlos Paz,AR,-31.42,-64.5,66.16,93,0,6.93
77,La Palma,US,33.85,-118.05,48.61,76,1,1.16
78,Macusani,PE,-14.08,-70.43,35.02,93,82,1.63
79,Geraldton,AU,-28.77,114.6,75.2,73,90,19.46
80,San Patricio,MX,19.22,-104.7,76.3,63,0,2.66
81,Bluff,NZ,-46.6,168.33,60.01,87,98,4.0
82,Sambava,MG,-14.27,50.17,93.29,46,29,5.57
83,Clyde River,CA,70.47,-68.59,-0.4,84,90,21.92
84,Batabano,CU,22.72,-82.29,69.8,100,20,4.7
85,Orangeburg,US,33.49,-80.86,39.81,46,20,6.93
86,Faanui,PF,-16.48,-151.75,83.25,69,38,4.38
87,New Norfolk,AU,-42.78,147.06,55.49,58,40,18.34
88,Airai,TL,-8.93,125.41,74.89,89,96,3.33
89,Nikolskoye,RU,59.7,30.79,32.27,78,75,6.71
90,Constitucion,CL,-35.33,-72.42,54.55,85,0,3.98
91,Bredasdorp,ZA,-34.53,20.04,76.42,50,77,9.17
92,Padang,ID,-0.95,100.35,76.87,78,100,3.09
93,Ola,RU,59.58,151.28,-2.81,75,100,14.18
94,Belyy Yar,RU,53.6,91.39,21.2,62,14,2.24
95,Port Hardy,CA,50.7,-127.42,39.2,93,90,3.36
96,Chui,UY,-33.7,-53.46,66.92,92,0,2.53
97,Yangi Marg`ilon,UZ,40.43,71.72,48.96,34,100,6.93
98,Rocha,UY,-34.48,-54.33,61.48,89,0,3.83
99,Ginir,ET,7.13,40.7,66.97,58,88,6.08
100,Nago,JP,26.59,127.98,75.83,65,90,16.11
101,Berlevag,NO,70.86,29.09,29.62,68,29,21.88
102,Bunia,CD,1.57,30.25,83.95,45,100,6.67
103,Changuinola,PA,9.43,-82.52,73.0,86,52,1.01
104,Bambous Virieux,MU,-20.34,57.76,84.06,70,75,16.11
105,Oodweyne,SO,9.41,45.06,79.95,28,0,8.14
106,Potsdam,DE,52.4,13.07,38.79,80,100,6.93
107,Esna,EG,25.29,32.55,73.4,35,0,4.59
108,Valley City,US,46.92,-98.0,27.37,100,90,13.87
109,Hofn,IS,64.25,-15.21,41.86,78,93,18.1
110,Butaritari,KI,3.07,172.79,83.1,75,25,18.28
111,Caravelas,BR,-17.71,-39.25,80.49,82,100,10.69
112,Basco,PH,20.45,121.97,78.91,77,0,19.64
113,Rawson,AR,-43.3,-65.1,63.86,55,31,13.35
114,Yellowknife,CA,62.46,-114.35,-18.2,75,90,8.05
115,Qaanaaq,GL,77.48,-69.36,-0.96,46,47,7.18
116,Los Llanos de Aridane,ES,28.66,-17.92,65.62,68,20,10.29
117,Chokwe,MZ,-24.53,32.98,93.38,47,0,2.51
118,Northam,GB,51.03,-4.22,51.91,93,75,25.28
119,Hualmay,PE,-11.1,-77.61,67.1,90,61,2.75
120,Chokurdakh,RU,70.63,147.92,-27.13,95,88,6.93
121,Mogzon,RU,51.74,111.96,10.44,90,0,3.74
122,Fort Nelson,CA,58.81,-122.7,-5.8,76,90,5.82
123,Ormara,PK,25.21,64.64,73.44,40,0,4.27
124,Guarapari,BR,-20.67,-40.5,73.4,100,9,3.36
125,Chazuta,PE,-6.57,-76.14,71.53,79,97,2.37
126,Lumeje,AO,-11.55,20.78,71.11,83,100,9.06
127,Ilulissat,GL,69.22,-51.1,8.6,60,100,4.7
128,Vila Velha,BR,-20.33,-40.29,73.4,100,9,3.36
129,Nagorsk,RU,59.32,50.81,17.29,94,89,5.1
130,Vestmannaeyjar,IS,63.44,-20.27,37.98,67,100,20.09
131,Kirkwall,GB,58.98,-2.96,42.03,81,20,32.21
132,Kavaratti,IN,10.57,72.64,82.22,73,7,8.34
133,Kulotino,RU,58.45,33.38,30.61,86,100,5.84
134,Coyhaique,CL,-45.58,-72.07,48.2,93,88,2.24
135,Saldanha,ZA,-33.01,17.94,84.2,39,0,4.7
136,Pevek,RU,69.7,170.31,-17.88,100,100,5.59
137,Teguise,ES,29.06,-13.56,62.6,77,20,13.87
138,Mount Gambier,AU,-37.83,140.77,59.0,93,90,12.75
139,Norman Wells,CA,65.28,-126.83,-38.2,72,40,2.24
140,Acajutla,SV,13.59,-89.83,83.32,58,0,10.04
141,Mackay,AU,-21.15,149.2,79.41,88,40,9.17
142,Thompson,CA,55.74,-97.86,-2.2,64,90,13.87
143,Tuatapere,NZ,-46.13,167.68,60.01,88,100,3.0
144,East London,ZA,-33.02,27.91,78.8,78,18,8.05
145,Hobyo,SO,5.35,48.53,85.59,55,83,21.77
146,Walvis Bay,NA,-22.96,14.51,66.0,91,0,1.01
147,Sinnamary,GF,5.38,-52.95,77.85,79,77,12.91
148,Mecca,SA,21.43,39.83,83.64,37,0,9.64
149,Bethel,US,41.37,-73.41,10.44,60,1,5.53
150,Gebre Guracha,ET,9.8,38.4,75.11,31,2,7.81
151,Cabo San Lucas,MX,22.89,-109.91,58.69,72,95,1.01
152,Leningradskiy,RU,69.38,178.42,-9.29,95,100,16.02
153,Bahia Honda,CU,22.9,-83.16,74.08,81,0,7.99
154,Kruisfontein,ZA,-34.0,24.73,77.95,60,56,7.05
155,Sept-Iles,CA,50.2,-66.38,-14.8,68,20,6.93
156,Bilibino,RU,68.05,166.44,-26.97,100,100,1.95
157,Lagos,NG,6.58,3.75,80.6,78,41,0.4
158,Khatanga,RU,71.97,102.5,12.88,93,100,12.26
159,Puerto Escondido,MX,15.85,-97.07,70.75,56,0,5.91
160,Kodiak,US,57.79,-152.41,21.2,85,20,6.93
161,Lusambo,CD,-4.97,23.45,76.15,71,100,4.59
162,Tiksi,RU,71.69,128.87,-6.12,86,100,10.29
163,Ligayan,PH,4.65,119.47,83.19,73,100,4.45
164,Westport,US,41.14,-73.36,12.29,51,1,5.82
165,Khani,GE,41.96,42.96,42.8,45,100,34.45
166,Pangnirtung,CA,66.15,-65.71,-34.89,100,81,1.19
167,Houston,US,29.76,-95.36,44.78,81,75,4.7
168,Khairpur Nathan Shah,PK,27.09,67.73,83.93,10,0,1.01
169,Talnakh,RU,69.49,88.4,10.4,85,20,17.9
170,Fukuecho,JP,32.69,128.84,60.8,100,75,5.82
171,Abu Samrah,SY,35.3,37.18,42.04,75,100,14.97
172,Dalbandin,PK,28.89,64.41,67.96,11,0,9.69
173,Coquimbo,CL,-29.95,-71.34,59.0,87,29,2.24
174,George Town,MY,5.41,100.34,86.94,79,20,13.87
175,Luanda,AO,-8.84,13.23,84.2,66,75,2.24
176,Galle,LK,6.04,80.22,82.17,71,0,6.08
177,Lorengau,PG,-2.02,147.27,83.7,77,91,12.73
178,Kautokeino,NO,69.01,23.04,3.04,90,87,5.93
179,Tongchuanshi,CN,35.08,109.09,34.2,16,33,7.45
180,Kavieng,PG,-2.57,150.8,83.8,77,100,12.64
181,Baker City,US,44.77,-117.83,31.6,79,75,1.57
182,Bilma,NE,18.69,12.92,72.43,15,46,12.84
183,Grand Gaube,MU,-20.01,57.66,83.68,70,75,16.11
184,Saint George,US,37.1,-113.58,33.69,73,1,4.7
185,Barrow,US,71.29,-156.79,-34.6,94,1,3.36
186,Zarubino,RU,42.63,131.09,26.6,54,100,13.22
187,Maturin,VE,9.75,-63.18,69.64,96,73,3.74
188,Ongandjera,NA,-17.88,15.07,84.6,45,53,6.64
189,Yambio,SS,4.57,28.4,83.62,37,89,3.58
190,Nova Olimpia,BR,-14.8,-57.29,72.28,94,98,1.36
191,Ponta do Sol,PT,32.67,-17.1,58.71,72,20,3.36
192,San Juan de los Morros,VE,9.91,-67.35,66.24,85,21,2.37
193,Qui Nhon,VN,13.77,109.23,80.91,76,0,8.28
194,Havre-Saint-Pierre,CA,50.23,-63.6,-7.6,52,1,6.93
195,Tumarbong,PH,10.38,119.46,82.42,68,0,6.42
196,Aasiaat,GL,68.71,-52.87,3.56,90,100,4.63
197,Xichang,CN,27.9,102.26,32.59,88,100,7.18
198,Kiryat Gat,IL,31.61,34.76,68.13,40,0,3.36
199,Petropavlovsk-Kamchatsky,RU,53.05,158.65,24.8,85,40,4.47
200,Saint-Augustin,CA,51.23,-58.65,-5.08,78,16,17.49
201,Kyaukse,MM,21.6,96.13,91.4,26,20,8.05
202,Lodja,CD,-3.48,23.43,85.26,57,76,4.45
203,Aguilas,ES,37.41,-1.58,54.36,100,0,1.61
204,Ixtapa,MX,20.7,-105.2,66.65,93,5,2.98
205,Banes,CU,20.96,-75.72,71.6,94,5,8.05
206,Lavrentiya,RU,65.58,-171.0,-9.81,82,100,10.42
207,Tevriz,RU,57.51,72.4,21.33,93,100,6.04
208,Santa Marta,CO,11.24,-74.2,62.89,71,0,4.56
209,Vao,NC,-22.67,167.48,79.79,76,2,18.21
210,Itoman,JP,26.12,127.67,76.32,88,75,14.99
211,Laas,IT,46.62,10.7,37.42,79,5,4.7
212,Lata,PT,40.16,-8.33,47.73,93,49,3.36
213,Stornoway,GB,58.21,-6.39,44.8,81,75,41.38
214,Alta Floresta,BR,-9.88,-56.09,71.28,97,99,3.76
215,Cotonou,BJ,6.37,2.42,80.6,74,0,2.24
216,Laguna,US,38.42,-121.42,44.91,87,1,3.36
217,Puerto Suarez,BO,-18.95,-57.8,76.05,85,77,2.98
218,Svetlogorsk,BY,52.63,29.73,34.39,92,100,7.87
219,Wau,SS,7.7,28.0,97.32,9,0,6.17
220,Klaksvik,FO,62.23,-6.59,42.8,87,96,26.4
221,Lagoa,PT,39.05,-27.98,62.62,85,100,31.54
222,Erdenet,MN,49.03,104.08,10.78,84,0,4.34
223,Dunedin,NZ,-45.87,170.5,59.0,93,99,5.01
224,Brownsville,US,25.9,-97.5,57.96,76,90,3.36
225,Lamar,US,33.67,-95.58,35.51,69,1,8.05
226,San Miguel de Tucuman,AR,-26.82,-65.22,75.2,94,90,3.27
227,Cabedelo,BR,-6.98,-34.83,75.2,94,20,5.82
228,Koumra,TD,8.91,17.55,92.7,9,0,5.53
229,Kandrian,PG,-6.22,149.55,77.81,83,63,9.19
230,Mahon,ES,39.89,4.27,57.2,87,75,5.82
231,West Wendover,US,40.74,-114.07,26.6,73,1,5.39
232,Fort Walton Beach,US,30.41,-86.62,41.32,60,1,6.93
233,Bonthe,SL,7.53,-12.51,79.09,78,0,5.17
234,Dingle,PH,11.0,122.67,80.73,70,8,9.46
235,Mahebourg,MU,-20.41,57.7,84.15,70,75,16.11
236,Jennings,US,38.72,-90.26,22.1,79,1,10.29
237,Upernavik,GL,72.79,-56.15,-0.49,46,27,4.52
238,Sovetskiy,RU,61.36,63.58,21.24,93,100,2.91
239,Cucutilla,CO,7.54,-72.77,53.55,84,83,6.42
240,Carnarvon,AU,-24.87,113.63,84.2,58,1,16.11
241,Ostrovnoy,RU,68.05,39.51,17.74,88,86,12.8
242,Denizli,TR,37.84,29.07,42.8,81,75,14.99
243,Ban Dung,TH,17.7,103.26,96.8,25,0,4.7
244,Tahe,CN,52.33,124.73,6.87,89,90,6.24
245,Kenai,US,60.55,-151.26,12.76,85,90,5.82
246,Bucovice,CZ,49.15,17.0,41.13,75,20,1.12
247,Jaisinghnagar,IN,23.7,81.38,83.91,12,34,9.73
248,Hambantota,LK,6.12,81.12,93.2,49,20,13.87
249,Salym,RU,60.06,71.48,16.93,93,100,7.74
250,San Vicente,AR,-26.62,-54.13,69.49,76,100,2.89
251,Kanniyakumari,IN,8.08,77.57,82.92,73,0,22.03
252,Luena,AO,-11.78,19.92,69.8,89,100,6.15
253,Tinskoy,RU,56.15,96.92,25.09,87,24,1.52
254,Esperance,AU,-33.87,121.9,86.0,40,75,20.8
255,Leh,IN,34.17,77.58,12.61,52,16,3.2
256,Grand Forks,US,47.93,-97.03,22.37,92,90,6.93
257,Manokwari,ID,-0.87,134.08,75.56,92,88,6.49
258,San Andres,CO,12.58,-81.7,80.6,83,20,16.11
259,Jacareacanga,BR,-6.22,-57.75,70.93,99,28,1.59
260,Mitsamiouli,KM,-11.38,43.28,89.6,66,20,5.82
261,Tura,IN,25.52,90.22,82.13,34,18,2.68
262,Lompoc,US,34.64,-120.46,45.73,93,90,3.36
263,Teahupoo,PF,-17.83,-149.27,78.46,83,20,3.36
264,Buraidah,SA,26.33,43.98,62.6,39,55,6.93
265,Kailua,US,21.4,-157.74,71.96,93,40,3.36
266,Kirakira,SB,-10.45,161.92,77.65,86,100,14.63
267,Gallup,US,35.53,-108.74,33.1,69,1,6.93
268,Morrope,PE,-6.54,-80.01,66.2,29,99,10.29
269,Millbrook,US,32.48,-86.36,32.36,69,1,5.59
270,Moron,AR,-34.65,-58.62,61.21,87,0,2.24
271,Talaya,RU,61.38,152.75,-21.55,98,100,5.1
272,Tsushima,JP,35.17,136.72,53.87,81,75,3.36
273,Antofagasta,CL,-23.65,-70.4,68.0,88,75,3.36
274,Port Lincoln,AU,-34.73,135.87,64.71,76,0,17.34
275,Rocky Mountain House,CA,52.37,-114.92,9.91,96,99,4.0
276,Muros,ES,42.78,-9.06,55.44,81,75,9.17
277,Siderno,IT,38.28,16.3,59.56,62,20,10.29
278,Kinkala,CG,-4.36,14.76,78.8,83,40,3.36
279,Sari,IR,36.56,53.06,50.0,61,76,18.34
280,Indiana,US,40.0,-86.25,11.98,92,1,5.82
281,Khandyga,RU,62.67,135.6,-30.44,95,0,1.61
282,Vredendal,ZA,-31.67,18.5,89.89,30,44,7.11
283,Deloraine,AU,-41.53,146.67,65.44,52,94,26.4
284,Lahijan,IR,37.21,50.0,46.62,52,100,6.93
285,Safi,MA,32.3,-9.24,57.16,84,32,9.95
286,Suleja,NG,9.18,7.18,78.8,34,0,4.7
287,Ust'-Barguzin,RU,53.45,108.98,11.39,81,0,0.6
288,Pringsewu,ID,-5.36,104.97,82.15,86,61,1.57
289,Jishou,CN,28.32,109.72,34.93,95,100,4.54
290,Urupes,BR,-21.2,-49.29,68.38,92,29,1.59
291,Tahta,EG,26.77,31.5,62.65,40,0,6.93
292,Charters Towers,AU,-20.1,146.27,89.67,36,74,6.44
293,Ugoofaaru,MV,5.67,73.0,82.9,78,1,12.24
294,Riyadh,SA,24.69,46.72,71.6,18,0,4.7
295,Dubki,RU,43.02,46.84,44.4,56,84,22.37
296,Inongo,CD,-1.95,18.27,76.86,77,81,3.36
297,Lakatoro,VU,-16.1,167.42,82.4,88,40,5.82
298,Shingu,JP,33.73,135.98,59.0,77,75,5.82
299,Quelimane,MZ,-17.88,36.89,87.8,74,40,3.36
300,Torbay,CA,47.67,-52.73,6.35,71,40,20.8
301,Dakoro,NE,14.51,6.76,76.51,9,100,17.94
302,Lebu,CL,-37.62,-73.65,53.01,99,42,3.06
303,Mookane,BW,-23.69,26.66,85.66,39,0,13.87
304,Payo,ID,-3.75,103.64,80.15,73,94,3.02
305,Rybnaya Sloboda,RU,55.46,50.14,14.0,85,96,4.47
306,Megalopolis,GR,37.4,22.14,59.0,71,40,6.93
307,Saint-Joseph,RE,-21.37,55.62,77.23,78,100,6.93
308,Pacific Grove,US,36.62,-121.92,43.75,93,1,9.13
309,Lages,BR,-27.82,-50.33,61.48,93,100,4.47
310,Iqaluit,CA,63.75,-68.51,-27.2,60,40,11.41
311,Inuvik,CA,68.35,-133.72,-34.6,65,20,4.7
312,Mehamn,NO,71.04,27.85,22.46,79,39,18.61
313,Dire,ML,12.28,-10.97,77.92,12,95,3.8
314,Port Elizabeth,ZA,-33.92,25.57,77.0,73,20,8.05
315,Peniche,PT,39.36,-9.38,50.68,100,20,2.24
316,Cooma,AU,-36.23,149.13,64.4,93,40,10.29
317,Raudeberg,NO,61.99,5.14,41.07,81,67,21.92
318,Sao Joao da Barra,BR,-21.64,-41.05,73.06,88,70,4.36
319,Cockburn Town,TC,21.46,-71.14,77.22,75,28,14.63
320,Priozyornoye,UA,45.27,36.33,41.38,73,100,18.07
321,Saint Anthony,US,45.02,-93.22,16.66,67,1,14.99
322,Chemal,RU,51.41,86.0,29.08,69,100,0.13
323,Mersa Matruh,EG,31.35,27.25,62.6,67,0,8.05
324,Aksu,CN,41.12,80.26,37.11,26,11,3.6
325,Vrangel,RU,42.73,133.08,29.01,34,100,2.66
326,Vardo,NO,70.37,31.11,24.76,70,0,12.01
327,Lock Haven,US,41.14,-77.45,7.39,78,1,0.43
328,Derzhavinsk,KZ,51.1,66.32,25.14,90,100,9.22
329,Qaqortoq,GL,60.72,-46.03,30.2,33,100,8.05
330,Karibib,NA,-21.93,15.83,78.69,50,77,8.46
331,Herat,AF,34.5,62.0,48.2,45,40,5.82
332,Mednogorskiy,RU,43.92,41.18,36.23,28,100,2.42
333,Albert,FR,50.0,2.65,47.32,93,90,13.87
334,Murray Bridge,AU,-35.12,139.27,66.16,92,22,3.0
335,Sao Paulo do Potengi,BR,-5.89,-35.76,75.2,100,20,4.7
336,Departamento de Maldonado,UY,-34.67,-54.92,62.6,93,0,6.93
337,Damghan,IR,36.17,54.35,39.42,27,47,2.84
338,Severnyy-Kospashskiy,RU,59.09,57.8,25.0,57,97,1.99
339,Fakel,RU,57.63,53.03,20.95,90,90,4.03
340,Diamantino,BR,-14.41,-56.45,72.57,96,99,4.76
341,Rio Grande,BR,-32.03,-52.1,73.4,84,72,6.11
342,Baruun-Urt,MN,46.68,113.28,-0.58,82,0,7.43
343,San Felipe,VE,10.34,-68.74,71.71,96,69,1.01
344,Trapani,IT,37.83,12.67,53.53,58,0,9.17
345,Pathein,MM,16.78,94.73,77.63,63,15,11.07
346,Letterkenny,IE,54.95,-7.73,49.06,81,40,33.33
347,Russell,US,32.35,-85.2,32.65,48,1,4.7
348,Igrim,RU,63.19,64.42,15.94,92,100,1.57
349,Det Udom,TH,14.91,105.08,96.8,37,20,6.93
350,Muisne,EC,0.6,-80.03,76.71,89,84,0.65
351,Pochutla,MX,15.74,-96.47,72.0,85,0,2.08
352,Port Blair,IN,11.67,92.75,79.38,55,0,9.15
353,Pisco,PE,-13.7,-76.22,70.29,88,75,2.35
354,Sola,VU,-13.88,167.55,84.42,80,100,21.0
355,Cayambe,EC,0.05,-78.13,55.4,93,75,2.24
356,Chase,CA,50.82,-119.69,26.22,86,90,2.24
357,Saskylakh,RU,71.92,114.08,9.05,94,100,9.55
358,Sikonge,TZ,-5.63,32.77,78.8,69,40,11.41
359,Tiznit,MA,29.58,-9.5,64.44,24,100,2.75
360,Chimoio,MZ,-19.12,33.48,77.0,78,75,1.45
361,Jumla,NP,29.27,82.18,53.01,69,0,3.0
362,Comodoro Rivadavia,AR,-45.87,-67.5,62.6,45,98,17.22
363,Porto-Novo,BJ,6.5,2.6,80.6,74,0,2.24
364,Wakema,MM,16.6,95.18,89.92,28,0,14.65
365,Hemnesberget,NO,66.23,13.63,28.22,92,75,4.7
366,Beira,MZ,-19.84,34.84,89.6,62,20,3.36
367,Korla,CN,41.76,86.15,21.74,47,48,4.36
368,Iwanai,JP,42.97,140.51,20.86,80,100,7.96
369,Alice Springs,AU,-23.7,133.88,100.4,16,0,9.17
370,Durango,MX,24.83,-104.83,42.35,32,99,3.02
371,Kangaatsiaq,GL,68.31,-53.46,15.35,73,100,8.7
372,Kerema,PG,-7.96,145.78,77.95,87,8,1.32
373,Margate,GB,51.38,1.39,51.01,93,75,17.22
374,Quesnel,CA,53.0,-122.5,32.0,95,90,9.17
375,Aliwal North,ZA,-30.69,26.71,86.79,23,0,15.95
376,Neiafu,TO,-18.65,-173.98,80.92,78,100,21.18
377,Avera,US,33.19,-82.53,39.25,64,1,5.82
378,Bandarbeyla,SO,9.49,50.81,77.05,76,71,18.16
379,Novoukrayinka,UA,48.33,31.53,40.53,69,91,7.16
380,Puerto Plata,DO,19.79,-70.69,70.77,100,20,8.05
381,Ancud,CL,-41.87,-73.82,53.6,87,75,10.29
382,Candelaria,PH,13.93,121.42,82.99,79,1,3.0
383,Palmdale,US,34.58,-118.12,45.21,56,1,4.7
384,Bubaque,GW,11.28,-15.83,78.96,52,86,16.13
385,Conakry,GN,9.54,-13.68,77.0,73,0,6.02
386,New Castle,US,41.0,-80.35,6.44,78,1,3.36
387,Thinadhoo,MV,0.53,72.93,84.2,70,0,9.26
388,Zhigansk,RU,66.77,123.37,-14.1,95,100,15.55
389,Chandler,US,33.31,-111.84,48.76,75,1,6.93
390,Hasaki,JP,35.73,140.83,56.07,71,75,5.82
391,Shimoda,JP,34.67,138.95,60.48,72,100,8.79
392,Shubarkuduk,KZ,49.14,56.49,21.85,92,98,10.45
393,Balta,UA,47.94,29.62,39.97,71,86,5.55
394,Methala,IN,10.22,76.22,93.2,52,40,8.05
395,Pedernales,DO,18.04,-71.74,64.56,87,0,5.14
396,Lishu,CN,43.3,124.33,18.63,52,100,15.1
397,Aripuana,BR,-9.17,-60.63,72.99,99,100,2.98
398,Sao Filipe,CV,14.9,-24.5,77.29,45,100,14.2
399,Touros,BR,-5.2,-35.46,75.2,100,20,4.7
400,Jacqueville,CI,5.21,-4.41,80.6,94,20,8.05
401,Novyi Yarychiv,UA,49.9,24.31,33.8,80,90,6.71
402,Haines Junction,CA,60.75,-137.51,-10.98,98,100,4.85
403,Adrar,MR,20.5,-10.07,69.82,27,100,11.34
404,Drobak,NO,59.66,10.63,39.09,100,40,12.75
405,Souris,CA,49.62,-100.26,21.2,79,90,16.11
406,Lumby,CA,50.25,-118.97,32.88,69,90,5.82
407,Spoleto,IT,42.74,12.74,47.28,50,0,2.24
408,Bayan,CN,46.08,127.4,7.57,89,64,7.05
409,Geraldton,AU,-28.77,114.6,75.2,73,90,19.46
410,Pinheiro,BR,-2.52,-45.08,72.27,98,100,1.34
411,Ulladulla,AU,-35.35,150.47,69.8,83,90,6.93
412,Nanortalik,GL,60.14,-45.24,29.1,49,100,10.22
413,Namatanai,PG,-3.67,152.43,83.37,75,100,11.45
414,Van Buren,US,35.44,-94.35,30.97,86,1,6.6
415,Flinders,AU,-34.58,150.86,71.26,83,90,6.93
416,Belaya Gora,RU,68.53,146.42,-27.22,92,16,6.24
417,Vestmanna,FO,62.16,-7.17,42.8,87,97,26.4
418,Inverness,GB,57.48,-4.22,44.35,65,100,16.11
419,Gainesville,US,29.65,-82.32,45.28,87,1,6.93
420,Mina,MX,26.0,-100.53,50.07,76,90,4.7
421,Siguiri,GN,11.67,-9.5,77.52,10,19,4.81
422,Londoko,RU,49.03,131.98,2.52,84,8,7.72
423,Halifax,CA,44.65,-63.57,-0.78,77,5,9.17
424,Isangel,VU,-19.55,169.27,79.52,78,74,20.13
425,Yermakovskoye,RU,53.28,92.4,20.1,81,0,3.65
426,Roald,NO,62.58,6.13,38.8,86,75,25.28
427,Santa Cruz de Barahona,DO,18.21,-71.1,77.22,72,4,8.05
428,Beloha,MG,-25.17,45.05,102.45,22,0,4.23
429,Esperantinopolis,BR,-4.87,-44.71,70.43,99,100,3.74
430,Atar,MR,20.52,-13.05,72.32,16,100,8.41
431,Micheweni,TZ,-4.97,39.83,82.49,79,32,14.2
432,Usinsk,RU,65.99,57.53,14.65,93,97,14.38
433,West Bay,KY,19.37,-81.42,77.68,79,0,5.01
434,Aklavik,CA,68.22,-135.01,-34.6,65,20,4.7
435,Clarence Town,AU,-32.58,151.78,73.9,78,38,6.93
436,Bahia Blanca,AR,-38.72,-62.27,66.13,30,0,9.93
437,Constantine,DZ,36.37,6.61,42.8,93,20,2.13
438,Mercedes,AR,-34.65,-59.43,60.21,69,0,3.69
439,Uirauna,BR,-6.52,-38.41,71.56,93,100,2.44
440,Mount Isa,AU,-20.73,139.5,102.2,15,0,12.75
441,Nipawin,CA,53.37,-104.0,-5.8,58,1,14.99
442,Luderitz,NA,-26.65,15.16,62.6,88,0,9.17
443,Huarmey,PE,-10.07,-78.15,69.04,82,19,1.59
444,Faya,SA,18.39,42.45,68.86,34,0,10.29
445,Labuhan,ID,-6.88,112.21,84.52,77,78,7.07
446,Richards Bay,ZA,-28.78,32.04,79.43,83,0,9.51
447,Omsukchan,RU,62.53,155.8,-20.67,97,100,10.09
448,Shaunavon,CA,49.65,-108.42,15.3,96,98,5.7
449,Sarankhola,BD,22.31,89.79,89.31,22,0,12.1
450,Constitucion,CL,-35.33,-72.42,54.55,85,0,3.98
451,Umm Kaddadah,SD,13.6,26.69,83.5,10,0,13.67
452,Jiuquan,CN,39.74,98.52,22.53,26,0,6.85
453,Gondanglegi,ID,-7.75,112.01,80.08,88,100,5.32
454,Warrnambool,AU,-38.38,142.48,60.01,87,100,19.89
455,Jilin,CN,43.0,126.0,17.11,95,100,10.29
456,Louangphabang,LA,19.89,102.13,95.0,16,25,11.41
457,Saint-Pierre,RE,-21.34,55.48,77.25,78,100,6.93
458,Turukhansk,RU,65.82,87.98,13.68,93,100,13.56
459,Severo-Kuril'sk,RU,50.68,156.12,15.6,80,90,18.37
460,Takoradze,GH,4.88,-1.76,84.58,62,55,3.29
461,Bereket,TM,39.24,55.52,40.37,55,33,7.45
462,Sarangani,PH,5.4,125.46,81.95,74,0,25.52
463,Erenhot,CN,43.65,111.98,10.87,76,64,11.7
464,Ludhiana,IN,30.9,75.85,74.61,44,0,12.24
465,North Bend,US,43.41,-124.22,40.89,100,75,6.93
466,Tombouctou,ML,20.0,-3.0,74.88,16,100,15.88
467,Kristinehamn,SE,59.31,14.11,38.95,100,100,12.75
468,Salto,UY,-31.38,-57.97,73.99,95,0,5.01
469,Ejido,VE,8.55,-71.24,48.33,94,95,2.51
470,Saint Lawrence,MT,36.06,14.2,60.3,72,20,17.22
471,Dharchula,IN,29.85,80.53,54.82,25,0,7.18
472,Marathon,US,44.9,-89.77,8.44,65,75,13.87
473,Suamico,US,44.63,-88.04,9.64,55,90,5.82
474,Arrecife,ES,28.96,-13.55,63.37,77,20,13.87
475,Esim,GH,4.87,-2.24,84.58,62,55,3.29
476,'Ahuimanu,US,21.44,-157.84,71.96,93,40,3.36
477,Klyuchi,RU,52.27,79.17,19.2,91,100,6.26
478,Yloejaervi,FI,61.56,23.6,34.27,95,90,13.87
479,Ishinomaki,JP,38.42,141.3,50.0,66,67,5.82
480,Tottori,JP,35.5,134.23,54.63,82,0,13.87
481,Yamada,JP,39.47,141.95,38.89,76,40,2.8
482,Sitka,US,57.05,-135.33,36.7,86,90,3.36
483,Loralai,PK,30.37,68.6,63.9,13,0,16.02
484,Santa Rosa,PH,14.31,121.11,87.42,46,20,12.75
485,Bourail,NC,-21.57,165.48,77.02,82,8,5.46
486,Mahibadhoo,MV,3.78,72.97,83.14,76,0,11.32
487,Koumac,NC,-20.57,164.28,76.14,85,22,4.92
488,Itarema,BR,-2.92,-39.92,74.93,95,88,3.15
489,Smidovich,RU,48.6,133.82,2.93,83,0,4.92
490,San Jose,US,37.34,-121.89,44.82,93,1,0.92
491,Polewali,ID,-3.43,119.34,79.34,87,91,1.3
492,Hauterive,FR,46.09,3.45,39.2,80,67,9.17
493,Camana,PE,-16.62,-72.71,65.66,86,100,2.24
494,Tete,MZ,-16.16,33.59,82.4,78,40,3.36
495,The Valley,AI,18.22,-63.06,74.39,83,20,12.75
496,Le Hochet,MU,-20.14,57.52,83.17,70,75,16.11
497,Sala Consilina,IT,40.39,15.6,57.2,41,0,5.82
498,Okhotsk,RU,59.38,143.3,11.01,76,100,9.53
499,Pallasovka,RU,50.05,46.88,30.7,92,100,6.31
500,Nabire,ID,-3.37,135.48,79.0,88,62,1.79
501,Shelopugino,RU,51.65,117.56,2.53,95,5,2.53
502,Grindavik,IS,63.84,-22.43,33.24,80,75,20.8
503,Chernyshevskiy,RU,63.01,112.47,7.48,95,100,5.91
504,Pecos,US,31.42,-103.49,38.44,72,1,3.36
505,Gezing,AT,47.92,13.13,38.17,80,100,9.17
506,Chebarkul,RU,54.97,60.36,25.09,87,88,4.92
507,Shizunai,JP,42.33,142.37,19.81,79,35,7.47
508,Boguchany,RU,58.38,97.45,19.92,92,99,4.52
509,Samarai,PG,-10.62,150.67,79.41,77,0,5.19
510,Nara,JP,34.69,135.8,53.04,87,33,1.12
511,Porto Belo,BR,-27.16,-48.55,73.35,100,40,11.41
512,Honiara,SB,-9.43,159.95,82.4,78,75,9.17
513,Burnie,AU,-41.07,145.92,64.49,96,100,4.0
514,Katobu,ID,-4.94,122.53,82.69,86,100,2.04
515,Valledupar,CO,10.46,-73.25,66.33,76,18,5.66
516,Soyo,AO,-6.13,12.37,84.06,68,99,4.74
517,Athabasca,CA,54.72,-113.29,-14.37,94,65,1.92
518,Lira,UG,2.23,32.91,87.8,33,94,10.58
519,Avondale,US,33.44,-112.35,48.33,93,0,5.82
520,Hamilton,US,39.18,-84.53,13.71,92,1,3.91
521,Warwick,US,41.7,-71.42,9.41,51,1,9.17
522,Bara,NG,10.37,10.73,79.11,8,0,9.17
523,Marsh Harbour,BS,26.54,-77.06,74.43,78,67,4.72
524,Noyabrsk,RU,63.2,75.45,10.09,93,100,14.61
525,Deputatsky,RU,69.3,139.9,-23.55,77,0,5.64
526,Asau,RO,46.43,26.4,42.58,81,40,12.75
527,Ponta Delgada,PT,37.73,-25.67,62.6,93,75,18.34
528,Kloulklubed,PW,7.04,134.26,82.4,74,75,10.29
529,Lesnoy,RU,57.62,63.08,19.69,91,52,5.17
530,Linxia,CN,35.6,103.21,20.39,31,10,4.74
531,Zaozyornoye,UA,45.16,33.28,44.51,67,100,4.7
532,Naze,JP,28.37,129.48,71.6,94,75,14.99
533,Pospelikha,RU,51.95,81.77,23.31,90,62,5.23
534,Wahiawa,US,21.5,-158.02,71.8,93,40,3.36
535,Purnia,IN,25.78,87.47,80.42,35,0,1.36
536,Jiayuguan,CN,39.82,98.3,28.87,20,0,11.05
537,San Cristobal,VE,7.77,-72.22,51.28,95,9,5.3
538,Choix,MX,26.71,-108.32,61.66,50,32,3.06
539,Anadyr,RU,64.75,177.48,6.37,60,100,22.37
540,Pokrovsk,UA,48.28,37.18,33.13,99,87,6.93
541,Gunnedah,AU,-30.98,150.25,80.6,65,7,6.93
542,Tyukalinsk,RU,55.87,72.2,21.79,93,86,8.32
543,Auki,SB,-8.77,160.7,83.73,76,100,26.66
544,Aykhal,RU,66.0,111.5,10.4,92,24,4.47
545,Ilebo,CD,-4.32,20.58,82.8,59,100,3.18
546,Verkhnevilyuysk,RU,63.45,120.32,-2.85,96,96,4.23
547,Langham,CA,52.37,-106.97,3.29,71,20,13.87
548,Concepcion,CL,-36.83,-73.05,57.2,87,0,3.36
549,Mogadishu,SO,2.04,45.34,87.8,55,40,19.46
550,Valverde del Camino,ES,37.58,-6.75,54.0,71,4,2.84
551,Bom Jesus,BR,-9.07,-44.36,70.7,96,100,1.97
552,Kaeo,NZ,-35.1,173.78,69.66,84,100,7.0
553,Keetmanshoop,NA,-26.58,18.13,87.8,33,93,14.99
554,Sault Ste. Marie,CA,46.52,-84.33,17.06,72,90,9.17
555,Tautira,PF,-17.73,-149.15,78.44,83,20,3.36
556,Ucar,AZ,40.52,47.65,41.74,59,91,3.36
557,Pizarro,CO,4.95,-77.37,80.17,82,70,7.23
558,Nizhneangarsk,RU,55.78,109.55,7.39,95,70,2.73
559,Venkatagiri,IN,13.97,79.58,91.4,36,0,6.93
560,San Quintin,MX,30.48,-115.95,55.72,86,5,7.83
561,Oranjemund,NA,-28.55,16.43,82.81,43,0,4.09
562,Concordia,AR,-31.39,-58.02,73.99,95,0,5.01
563,Tamasane,BW,-22.42,27.4,85.24,40,0,13.87
564,Port Hedland,AU,-20.32,118.57,89.6,66,0,14.99
565,Aguimes,ES,27.91,-15.45,63.14,77,20,11.41
566,Ishigaki,JP,24.34,124.16,77.0,88,20,13.87
567,Sioux Lookout,CA,50.1,-91.92,16.9,78,90,14.99
568,Mulege,MX,26.88,-111.98,59.38,55,100,3.74
569,Menongue,AO,-14.66,17.69,77.29,67,100,2.08
570,Nome,US,64.5,-165.41,5.0,45,40,8.05
571,Jiangyou,CN,31.77,104.72,37.81,50,100,3.06
572,Merritt Island,US,28.54,-80.67,62.94,72,90,10.29
573,Turaif,SA,31.67,38.66,53.6,46,0,29.97
574,Lusaka,ZM,-15.41,28.29,73.4,73,75,9.17
575,Darnah,LY,32.77,22.64,59.95,72,60,23.76
576,Panaba,MX,21.28,-88.27,71.01,93,8,4.65
577,Kahului,US,20.89,-156.47,69.78,78,1,8.05
578,Lahat,ID,-3.8,103.53,80.15,73,94,3.02
579,Phetchaburi,TH,12.97,99.58,89.6,49,0,11.41
580,Monte Gordo,PT,37.18,-7.45,54.75,87,0,4.7
581,Serenje,ZM,-13.23,30.24,70.21,91,97,8.1
582,Necochea,AR,-38.55,-58.74,62.01,82,0,8.99
583,Borgarnes,IS,64.54,-21.92,33.01,69,75,16.11
584,Diu,IN,20.71,70.98,75.51,53,0,6.58
585,Podyuga,RU,61.09,40.86,24.39,92,98,8.72
586,Chapais,CA,49.78,-74.85,-11.2,76,90,6.93
587,OErnskoeldsvik,SE,63.29,18.72,33.8,93,100,6.93
588,Kysyl-Syr,RU,63.9,122.76,-14.66,98,27,3.44
589,Singaparna,ID,-7.35,108.11,78.94,78,100,6.51
590,Bathsheba,BB,13.22,-59.52,78.8,65,20,19.46
591,Saint-Ambroise,CA,48.55,-71.33,-18.36,74,20,2.13
592,Meiktila,MM,20.87,95.87,89.6,19,0,4.74
